<?xml version="1.0" encoding="utf-8"?>
<kml xmlns="http://www.opengis.net/kml/2.2">
  <Document>
    <Placemark>
      <name>沿海路四段 559 號（全家南環店旁）</name>
      <Point>
        <coordinates>120.4195,24.0507,0</coordinates>
      </Point>
    </Placemark>
    <Placemark>
      <name>沿海路五段 363 號（全聯沿海店旁）</name>
      <Point>
        <coordinates>120.4090,24.0495,0</coordinates>
      </Point>
    </Placemark>
    <Placemark>
      <name>彰鹿路七段 245 號（福興分駐所旁）</name>
      <Point>
        <coordinates>120.4415,24.0565,0</coordinates>
      </Point>
    </Placemark>
    <Placemark>
      <name>彰鹿路七段 255 號（寶成旁）</name>
      <Point>
        <coordinates>120.4423,24.0569,0</coordinates>
      </Point>
    </Placemark>
    <Placemark>
      <name>彰鹿路七段 16 號（締寶傢具旁）</name>
      <Point>
        <coordinates>120.4342,24.0505,0</coordinates>
      </Point>
    </Placemark>
    <Placemark>
      <name>彰鹿路六段 506 號（嘉里大榮旁）</name>
      <Point>
        <coordinates>120.4268,24.0458,0</coordinates>
      </Point>
    </Placemark>
    <Placemark>
      <name>彰鹿路六段 392 號（英發企業旁）</name>
      <Point>
        <coordinates>120.4300,24.0475,0</coordinates>
      </Point>
    </Placemark>
    <Placemark>
      <name>番花路一段 853 號（外中派出所前）</name>
      <Point>
        <coordinates>120.4158,24.0715,0</coordinates>
      </Point>
    </Placemark>
    <Placemark>
      <name>番花路二段 867 號（萊爾富福星店前）</name>
      <Point>
        <coordinates>120.4085,24.0780,0</coordinates>
      </Point>
    </Placemark>
    <Placemark>
      <name>員鹿路一段 266 號（福安宮斜對面）</name>
      <Point>
        <coordinates>120.4505,24.0585,0</coordinates>
      </Point>
    </Placemark>
    <Placemark>
      <name>員鹿路二段 88 號（全聯員鹿店旁）</name>
      <Point>
        <coordinates>120.4550,24.0622,0</coordinates>
      </Point>
    </Placemark>
    <Placemark>
      <name>員鹿路二段 184 號（福興郵局對面）</name>
      <Point>
        <coordinates>120.4580,24.0640,0</coordinates>
      </Point>
    </Placemark>
    <Placemark>
      <name>彰水路 22 號（快速道路旁）</name>
      <Point>
        <coordinates>120.4225,24.0415,0</coordinates>
      </Point>
    </Placemark>
    <Placemark>
      <name>彰水路二段 1 號（福懋加油站南邊）</name>
      <Point>
        <coordinates>120.4205,24.0375,0</coordinates>
      </Point>
    </Placemark>
    <Placemark>
      <name>南環路/福三路三段路口（7-11 福興旺福門市）</name>
      <Point>
        <coordinates>120.4160,24.0525,0</coordinates>
      </Point>
    </Placemark>
  </Document>
</kml>
